{
  "code": 100,
  "msg": "成功",
  "data": {
    "list": [
      {
        "id": "13782",
        "name": "广西大学动物医院",
        "seo_keywords": "广西大学动物医院,南宁市广西大学动物医院,南宁市广西大学动物医院医疗",
        "seo_description": "",
        "admin_id": "1",
        "update_admin_id": "8",
        "phone": "",
        "service_tag_ids": "9,2,190,189,192",
        "service_tags": "宠物医院,医疗,疫苗,体检,驱虫",
        "picture": "http://img.petshow.cc/pet_show/2016_03/c347fc61618504b1c83f3e16e40216a9.jpg",
        "latitude": "22.85710200000000000",
        "longitude": "108.28979200000000000",
        "province": "广西省",
        "city": "南宁市",
        "district": "西乡塘区",
        "street": "",
        "street_number": "",
        "formatted_address": "鲁班路",
        "surround": "",
        "business_hour": "尚无营业时间",
        "level": "35",
        "source": "http://m.dianping.com/shop/14356295",
        "intro": "",
        "is_delete": "0",
        "create_time": "2015-12-08 16:38:38",
        "update_time": "0000-00-00 00:00:00"
      },
      {
        "id": "7873",
        "name": "天赐动物医院",
        "seo_keywords": "天赐动物医院,沈阳天赐动物医院,沈阳宠物医院",
        "seo_description": "沈阳宠物医院天赐动物医院是一家专为宠物诊疗的宠物医疗机构",
        "admin_id": "1",
        "update_admin_id": "5",
        "phone": "15204065810",
        "service_tag_ids": "9,192,190,189",
        "service_tags": "宠物医院,驱虫,疫苗,体检",
        "picture": "http://img.petshow.cc/pet_show/2015_07/61d066df3a3d30cc64f6afe3e246ed24.png",
        "latitude": "41.67312500000000000",
        "longitude": "123.34659800000000000",
        "province": "辽宁省",
        "city": "沈阳市",
        "district": "苏家屯区",
        "street": "",
        "street_number": "",
        "formatted_address": "青松路",
        "surround": "泰发汽配维修中心,优家电脑",
        "business_hour": "尚无营业时间",
        "level": "35",
        "source": "http://m.dianping.com/shop/14528498",
        "intro": "",
        "is_delete": "0",
        "create_time": "2015-07-09 17:02:28",
        "update_time": "2015-09-02 18:08:27"
      },
      {
        "id": "7872",
        "name": "快乐宝贝宠物诊所",
        "seo_keywords": "快乐宝贝宠物诊所,沈阳快乐宝贝宠物诊所,沈阳宠物医院,沈阳宠物诊所",
        "seo_description": "沈阳宠物医院快乐宝贝宠物诊所是一家专为宠物诊疗的宠物医疗诊所",
        "admin_id": "1",
        "update_admin_id": "5",
        "phone": "15040239971",
        "service_tag_ids": "9,190,189,192",
        "service_tags": "宠物医院,疫苗,体检,驱虫",
        "picture": "http://img.petshow.cc/pet_show/2015_07/0d449d4d0e5c87a18ba49f83a6eac595.png",
        "latitude": "41.78836400000000000",
        "longitude": "123.34277700000000000",
        "province": "辽宁省",
        "city": "沈阳市",
        "district": "铁西区",
        "street": "",
        "street_number": "",
        "formatted_address": "勋业三路9号",
        "surround": "山西刀削面（勋业三路）,金来蛋糕",
        "business_hour": "尚无营业时间",
        "level": "30",
        "source": "http://m.dianping.com/shop/14528445",
        "intro": "",
        "is_delete": "0",
        "create_time": "2015-07-09 17:02:28",
        "update_time": "2015-09-02 18:08:49"
      },
      {
        "id": "7866",
        "name": "观赏动物医院",
        "seo_keywords": "观赏动物医院,沈阳观赏动物医院,沈阳宠物医院",
        "seo_description": "沈阳宠物医院观赏动物医院是一家专为宠物诊疗的医疗机构",
        "admin_id": "1",
        "update_admin_id": "5",
        "phone": "02424127755",
        "service_tag_ids": "9",
        "service_tags": "宠物医院",
        "picture": "http://img.petshow.cc/pet_show/2015_07/5f89e27c6694ea608c792c5b8289316c.png",
        "latitude": "41.78600500000000000",
        "longitude": "123.46809500000000000",
        "province": "辽宁省",
        "city": "沈阳市",
        "district": "沈河区",
        "street": "",
        "street_number": "",
        "formatted_address": "东滨河路106号",
        "surround": "沈阳煤炭科学研究所,沈阳出入境检验检疫局检验检疫综合技术中心",
        "business_hour": "尚无营业时间",
        "level": "30",
        "source": "http://m.dianping.com/shop/14781147",
        "intro": "",
        "is_delete": "0",
        "create_time": "2015-07-09 17:02:19",
        "update_time": "2015-09-02 15:53:03"
      },
      {
        "id": "7859",
        "name": "中小动物医院",
        "seo_keywords": "中小动物医院,沈阳中小动物医院,沈阳宠物医院",
        "seo_description": "沈阳宠物医院中小动物医院是一家专为宠物诊疗的宠物医疗机构",
        "admin_id": "1",
        "update_admin_id": "5",
        "phone": "",
        "service_tag_ids": "9",
        "service_tags": "宠物医院",
        "picture": "http://img.petshow.cc/pet_show/2015_07/2dab9029b97ba2e5b13d3ad20d473251.png",
        "latitude": "42.00584500000000000",
        "longitude": "122.84662300000000000",
        "province": "辽宁省",
        "city": "沈阳市",
        "district": "新民",
        "street": "",
        "street_number": "",
        "formatted_address": "中兴东路13号",
        "surround": "东城紫祥苑,新民市城区第五小学",
        "business_hour": "尚无营业时间",
        "level": "30",
        "source": "http://m.dianping.com/shop/14528538",
        "intro": "",
        "is_delete": "0",
        "create_time": "2015-07-09 17:02:17",
        "update_time": "2015-09-02 18:09:53"
      },
      {
        "id": "7857",
        "name": "万康动物医院",
        "seo_keywords": "万康动物医院,沈阳万康动物医院,沈阳宠物医院",
        "seo_description": "沈阳宠物医院万康动物医院是一家专为宠物诊疗的宠物医疗机构",
        "admin_id": "1",
        "update_admin_id": "5",
        "phone": "02431031624",
        "service_tag_ids": "9,190,189,191,192,193,184,185,186",
        "service_tags": "宠物医院,疫苗,体检,绝育,驱虫,洗牙,裁耳,断尾,断指",
        "picture": "http://img.petshow.cc/pet_show/2015_07/1e34ab55d420be01ef31b8f42069f3fe.png",
        "latitude": "41.77047100000000000",
        "longitude": "123.45775300000000000",
        "province": "辽宁省",
        "city": "沈阳市",
        "district": "和平区",
        "street": "",
        "street_number": "",
        "formatted_address": "文萃路62甲10号（南塔公园）",
        "surround": "南塔街小学,辽宁省交通科学研究院",
        "business_hour": "08:00-20:00",
        "level": "35",
        "source": "http://m.dianping.com/shop/24020314",
        "intro": "",
        "is_delete": "0",
        "create_time": "2015-07-09 17:02:16",
        "update_time": "2015-09-02 17:50:48"
      },
      {
        "id": "7856",
        "name": "新兴动物医院",
        "seo_keywords": "新兴动物医院,沈阳新兴动物医院,沈阳宠物医院",
        "seo_description": "沈阳宠物医院新兴动物医院是一家专为宠物诊疗的宠物医疗机构",
        "admin_id": "1",
        "update_admin_id": "5",
        "phone": "",
        "service_tag_ids": "9,190",
        "service_tags": "宠物医院,疫苗",
        "picture": "http://img.petshow.cc/pet_show/2015_07/6c8c86fcba5458ad1aead74f250226d4.png",
        "latitude": "42.00662200000000000",
        "longitude": "122.83954900000000000",
        "province": "辽宁省",
        "city": "沈阳市",
        "district": "东陵区",
        "street": "",
        "street_number": "",
        "formatted_address": "市府路",
        "surround": "中通快递,海洋铝塑门窗",
        "business_hour": "尚无营业时间",
        "level": "30",
        "source": "http://m.dianping.com/shop/14528531",
        "intro": "",
        "is_delete": "0",
        "create_time": "2015-07-09 17:02:16",
        "update_time": "2015-09-02 17:06:15"
      },
      {
        "id": "7843",
        "name": "吴兽医宠物医院",
        "seo_keywords": "吴兽医宠物医院,沈阳吴兽医宠物医院,沈阳宠物医院",
        "seo_description": "沈阳宠物医院吴兽医宠物医院是一家专为宠物诊疗的医疗机构",
        "admin_id": "1",
        "update_admin_id": "5",
        "phone": "",
        "service_tag_ids": "9",
        "service_tags": "宠物医院",
        "picture": "http://img.petshow.cc/pet_show/2015_07/44d8091435ad7cbf82f1242a63bb8083.jpg",
        "latitude": "42.51605700000000000",
        "longitude": "123.42299100000000000",
        "province": "辽宁省",
        "city": "沈阳市",
        "district": "法库县",
        "street": "",
        "street_number": "",
        "formatted_address": "法库红街2号",
        "surround": "阳光家园,继哲五金建材商店",
        "business_hour": "尚无营业时间",
        "level": "30",
        "source": "http://m.dianping.com/shop/14844969",
        "intro": "",
        "is_delete": "0",
        "create_time": "2015-07-09 17:02:10",
        "update_time": "2015-09-02 18:10:29"
      },
      {
        "id": "7840",
        "name": "吴兽医宠物医院",
        "seo_keywords": "吴兽医宠物医院,沈阳吴兽医宠物医院,沈阳宠物医院",
        "seo_description": "沈阳宠物医院吴兽医宠物医院是一家专为宠物诊疗宠物医院",
        "admin_id": "1",
        "update_admin_id": "5",
        "phone": "",
        "service_tag_ids": "9",
        "service_tags": "宠物医院",
        "picture": "http://img.petshow.cc/pet_show/2015_07/4c4be5a03430068a33226f83b36237ab.jpg",
        "latitude": "42.50800114924527000",
        "longitude": "123.41008010644937000",
        "province": "辽宁省",
        "city": "沈阳市",
        "district": "法库县",
        "street": "",
        "street_number": "",
        "formatted_address": "边门街",
        "surround": "法库县总工会,宇王装饰材料总汇",
        "business_hour": "尚无营业时间",
        "level": "30",
        "source": "http://m.dianping.com/shop/14844968",
        "intro": "",
        "is_delete": "0",
        "create_time": "2015-07-09 17:02:10",
        "update_time": "2015-09-02 18:10:45"
      },
      {
        "id": "7831",
        "name": "兴牧动物医院",
        "seo_keywords": "兴牧动物医院,沈阳兴牧动物医院,沈阳宠物医院",
        "seo_description": "沈阳宠物医院兴牧动物医院是一家专为宠物诊疗的宠物医疗机构",
        "admin_id": "1",
        "update_admin_id": "5",
        "phone": "",
        "service_tag_ids": "9,190,192,189",
        "service_tags": "宠物医院,疫苗,驱虫,体检",
        "picture": "http://img.petshow.cc/pet_show/2015_07/5ed76cfa89a5d1af516bbc1fe2fa255d.png",
        "latitude": "41.99870045914799000",
        "longitude": "122.82748491304903000",
        "province": "辽宁省",
        "city": "沈阳市",
        "district": "新民市",
        "street": "",
        "street_number": "",
        "formatted_address": "市府路3号附近 ",
        "surround": "中通快递,海洋铝塑门窗",
        "business_hour": "尚无营业时间",
        "level": "30",
        "source": "http://m.dianping.com/shop/14854895",
        "intro": "",
        "is_delete": "0",
        "create_time": "2015-07-09 17:02:06",
        "update_time": "2015-09-04 15:56:25"
      },
      {
        "id": "7826",
        "name": "汪汪宠物门诊",
        "seo_keywords": "汪汪宠物门诊,沈阳汪汪宠物门诊,沈阳宠物医院",
        "seo_description": "沈阳宠物医院汪汪宠物门诊是一家专为宠物诊疗的宠物医疗诊所",
        "admin_id": "1",
        "update_admin_id": "5",
        "phone": "",
        "service_tag_ids": "9,190,192,189",
        "service_tags": "宠物医院,疫苗,驱虫,体检",
        "picture": "http://img.petshow.cc/pet_show/2015_07/bce1309f16fae0ceb731d0505e7b2d8f.jpg",
        "latitude": "41.79158848311527000",
        "longitude": "123.32614882774298000",
        "province": "辽宁省",
        "city": "沈阳市",
        "district": "铁西区",
        "street": "",
        "street_number": "",
        "formatted_address": "南十西路31号",
        "surround": "金马广告,擎天幼儿园",
        "business_hour": "尚无营业时间",
        "level": "30",
        "source": "http://m.dianping.com/shop/4379376",
        "intro": "",
        "is_delete": "0",
        "create_time": "2015-07-09 17:02:02",
        "update_time": "2015-09-04 16:06:19"
      },
      {
        "id": "7819",
        "name": "自家宠物诊所",
        "seo_keywords": "自家宠物诊所,沈阳自家宠物诊所,沈阳宠物医院,沈阳宠物诊所",
        "seo_description": "沈阳宠物医院自家宠物诊所是一家专为宠物诊疗的宠物诊所",
        "admin_id": "1",
        "update_admin_id": "5",
        "phone": "",
        "service_tag_ids": "9,190,189,192",
        "service_tags": "宠物医院,疫苗,体检,驱虫",
        "picture": "http://img.petshow.cc/pet_show/2015_07/400ebeac644f094ef2d5097d4c120f17.jpg",
        "latitude": "41.76449167603714600",
        "longitude": "123.34124892706826000",
        "province": "辽宁省",
        "city": "沈阳市",
        "district": "于洪区",
        "street": "",
        "street_number": "",
        "formatted_address": "吉力湖街196号-10门",
        "surround": "宏发三千苑,洪雨缘超市",
        "business_hour": "尚无营业时间",
        "level": "30",
        "source": "http://m.dianping.com/shop/14873491",
        "intro": "",
        "is_delete": "0",
        "create_time": "2015-07-09 17:01:59",
        "update_time": "2015-09-04 16:27:39"
      },
      {
        "id": "7811",
        "name": "宠物疾病康复中心",
        "seo_keywords": "宠物疾病康复中心,沈阳宠物疾病康复中心,沈阳宠物医疗",
        "seo_description": "沈阳宠物医疗宠物疾病康复中心是一家专为宠物诊疗的宠物医疗中心",
        "admin_id": "1",
        "update_admin_id": "5",
        "phone": "",
        "service_tag_ids": "9",
        "service_tags": "宠物医院",
        "picture": "http://img.petshow.cc/pet_show/2015_07/68fa8f8ac19ed82de6435be28edf5bb7.jpg",
        "latitude": "41.86626028411120600",
        "longitude": "123.48133248885347000",
        "province": "辽宁省",
        "city": "沈阳市",
        "district": "大东区",
        "street": "",
        "street_number": "",
        "formatted_address": "生产路31号-19门",
        "surround": "奇尔斯公馆,他乡旅馆",
        "business_hour": "尚无营业时间",
        "level": "30",
        "source": "http://m.dianping.com/shop/14767837",
        "intro": "",
        "is_delete": "0",
        "create_time": "2015-07-09 17:01:56",
        "update_time": "2015-09-04 16:41:05"
      },
      {
        "id": "7801",
        "name": "观赏动物医院",
        "seo_keywords": "观赏动物医院,沈阳观赏动物医院,沈阳宠物医院",
        "seo_description": "沈阳宠物医院观赏动物医院是一家专为宠物诊疗的医疗机构",
        "admin_id": "1",
        "update_admin_id": "5",
        "phone": "02424813704",
        "service_tag_ids": "9",
        "service_tags": "宠物医院",
        "picture": "http://img.petshow.cc/pet_show/2015_07/51ecd812d0258d3302fc2fa2ad16e188.jpg",
        "latitude": "41.78600500000000000",
        "longitude": "123.46809500000000000",
        "province": "辽宁省",
        "city": "沈阳市",
        "district": "沈河区",
        "street": "",
        "street_number": "",
        "formatted_address": "大南街龙凤寺巷67号",
        "surround": "心合商务酒店,滨河小区",
        "business_hour": "尚无营业时间",
        "level": "30",
        "source": "http://m.dianping.com/shop/4379361",
        "intro": "",
        "is_delete": "0",
        "create_time": "2015-07-09 17:01:52",
        "update_time": "2015-07-29 11:04:59"
      },
      {
        "id": "7798",
        "name": "贝贝动物医院",
        "seo_keywords": "贝贝动物医院,沈阳贝贝动物医院,沈阳宠物医院",
        "seo_description": "沈阳宠物医院贝贝动物医院是一家专为宠物诊疗的医疗机构",
        "admin_id": "1",
        "update_admin_id": "5",
        "phone": "024-66990120 ",
        "service_tag_ids": "9,190,189,192",
        "service_tags": "宠物医院,疫苗,体检,驱虫",
        "picture": "http://img.petshow.cc/pet_show/2015_07/aed60094213032696d51f7274656fce3.png",
        "latitude": "41.67325900000000000",
        "longitude": "123.35414800000000000",
        "province": "辽宁省",
        "city": "沈阳市",
        "district": "苏家屯",
        "street": "",
        "street_number": "",
        "formatted_address": "雪柳街21-4门",
        "surround": "雪松新城E区,苏家屯基督教雪松路教会",
        "business_hour": "尚无营业时间",
        "level": "30",
        "source": "http://m.dianping.com/shop/14760442",
        "intro": "",
        "is_delete": "0",
        "create_time": "2015-07-09 17:01:52",
        "update_time": "2015-07-29 11:04:59"
      },
      {
        "id": "7793",
        "name": "焕康动物诊所",
        "seo_keywords": "焕康动物诊所,沈阳焕康动物诊所,沈阳宠物医院,沈阳宠物诊所",
        "seo_description": "沈阳宠物医院焕康动物诊所是一家专为宠物诊疗的宠物医疗诊所",
        "admin_id": "1",
        "update_admin_id": "5",
        "phone": "02431617616",
        "service_tag_ids": "9,190,189,192,191,184,185,186,193,16,6,21,86",
        "service_tags": "宠物医院,疫苗,体检,驱虫,绝育,裁耳,断尾,断指,洗牙,宠物用品,寄养,洗澡,造型",
        "picture": "http://img.petshow.cc/pet_show/2015_07/5c9f55244389b5a1b5506195d242ae53.png",
        "latitude": "41.78394000000000000",
        "longitude": "123.35843100000000000",
        "province": "辽宁省",
        "city": "沈阳市",
        "district": "铁西区",
        "street": "",
        "street_number": "",
        "formatted_address": "艳粉街18号8门（近沈辽万达广场）",
        "surround": "天虹旅馆,天缘雅苑",
        "business_hour": "09:00 - 21:00",
        "level": "30",
        "source": "http://m.dianping.com/shop/21139225",
        "intro": "",
        "is_delete": "0",
        "create_time": "2015-07-09 17:01:50",
        "update_time": "2015-07-29 14:30:19"
      },
      {
        "id": "7788",
        "name": "宠爱有家小动物诊疗中心",
        "seo_keywords": "宠爱有家小动物诊疗中心,沈阳宠爱有家小动物诊疗中心,沈阳宠物医院",
        "seo_description": "沈阳宠物医院宠爱有家小动物诊疗中心是一家专为宠物诊疗的宠物医疗机构",
        "admin_id": "1",
        "update_admin_id": "5",
        "phone": "",
        "service_tag_ids": "9,190,189,192",
        "service_tags": "宠物医院,疫苗,体检,驱虫",
        "picture": "http://img.petshow.cc/pet_show/2015_07/aab7cc36faccbaf50b6cbfefd5e3dc13.jpg",
        "latitude": "41.52306600000000000",
        "longitude": "122.74747900000000000",
        "province": "辽宁省",
        "city": "沈阳市",
        "district": "辽中县",
        "street": "",
        "street_number": "",
        "formatted_address": "北环路2号",
        "surround": "镇北卫生室,康廉诊所",
        "business_hour": "尚无营业时间",
        "level": "30",
        "source": "http://m.dianping.com/shop/14767793",
        "intro": "",
        "is_delete": "0",
        "create_time": "2015-07-09 17:01:49",
        "update_time": "2015-07-29 15:44:40"
      },
      {
        "id": "7786",
        "name": "仁博动物医院",
        "seo_keywords": "仁博动物医院,沈阳仁博动物医院,沈阳宠物医院",
        "seo_description": "",
        "admin_id": "1",
        "update_admin_id": "5",
        "phone": "02487859191",
        "service_tag_ids": "9,190,189,192",
        "service_tags": "宠物医院,疫苗,体检,驱虫",
        "picture": "http://img.petshow.cc/pet_show/2015_07/e8b11503ca707f5b574fa703bc0ecae6.png",
        "latitude": "42.00991800000000000",
        "longitude": "122.82872000000000000",
        "province": "辽宁省",
        "city": "沈阳市",
        "district": "新民",
        "street": "",
        "street_number": "",
        "formatted_address": "站前东路辽河大街190号附近 ",
        "surround": "奎民五金机电工具商行,霍家骨头馆",
        "business_hour": "尚无营业时间",
        "level": "30",
        "source": "http://m.dianping.com/shop/14528527",
        "intro": "",
        "is_delete": "0",
        "create_time": "2015-07-09 17:01:48",
        "update_time": "2015-07-29 15:55:23"
      },
      {
        "id": "7777",
        "name": "畜牧兽医协会动物诊疗门诊",
        "seo_keywords": "畜牧兽医协会动物诊疗门诊,沈阳畜牧兽医协会动物诊疗门诊,沈阳宠物医院,沈阳宠物诊所",
        "seo_description": "沈阳宠物医院畜牧兽医协会动物诊疗门诊是一家专为宠物诊疗的宠物医疗机构",
        "admin_id": "1",
        "update_admin_id": "5",
        "phone": "02424821697",
        "service_tag_ids": "9",
        "service_tags": "宠物医院",
        "picture": "http://img.petshow.cc/pet_show/2015_07/7eea52b27bd5bc3394b0893c54be31d8.png",
        "latitude": "41.77696800000000000",
        "longitude": "123.48692500000000000",
        "province": "辽宁省",
        "city": "沈阳市",
        "district": "沈河区",
        "street": "",
        "street_number": "",
        "formatted_address": "泉园三路31号楼",
        "surround": "泸州老窖专卖,长青公园",
        "business_hour": "尚无营业时间",
        "level": "30",
        "source": "http://m.dianping.com/shop/14089732",
        "intro": "",
        "is_delete": "0",
        "create_time": "2015-07-09 17:01:44",
        "update_time": "2015-07-29 16:44:20"
      },
      {
        "id": "7762",
        "name": "同达宠物医院",
        "seo_keywords": "同达宠物医院,沈阳同达宠物医院,沈阳宠物医院",
        "seo_description": "沈阳宠物医院同达宠物医院是一家专为宠物诊疗的宠物医院",
        "admin_id": "1",
        "update_admin_id": "5",
        "phone": "02422734361",
        "service_tag_ids": "9,190,189,192",
        "service_tags": "宠物医院,疫苗,体检,驱虫",
        "picture": "http://img.petshow.cc/pet_show/2015_07/811c14abbe9eec26691b8a6bdea457be.jpg",
        "latitude": "41.80726700000000000",
        "longitude": "123.44903400000000000",
        "province": "辽宁省",
        "city": "沈阳市",
        "district": "沈河区",
        "street": "",
        "street_number": "",
        "formatted_address": "小西路64甲5号",
        "surround": "沈阳市屈光眼病研究所,沈阳市交通经济汽校",
        "business_hour": "尚无营业时间",
        "level": "30",
        "source": "http://m.dianping.com/shop/4379397",
        "intro": "",
        "is_delete": "0",
        "create_time": "2015-07-09 17:01:39",
        "update_time": "2015-07-30 17:09:04"
      },
      {
        "id": "7760",
        "name": "北陵大街动物医院",
        "seo_keywords": "北陵大街动物医院,沈阳北陵大街动物医院,沈阳宠物医院",
        "seo_description": "沈阳宠物医院北陵大街动物医院是一家专为宠物诊疗的宠物医疗机构",
        "admin_id": "1",
        "update_admin_id": "5",
        "phone": "02486240643",
        "service_tag_ids": "9,190,189,192",
        "service_tags": "宠物医院,疫苗,体检,驱虫",
        "picture": "http://img.petshow.cc/pet_show/2015_07/42fb33b5974ff4c2adf201c56ec193ee.jpg",
        "latitude": "41.83299800000000000",
        "longitude": "123.43725900000000000",
        "province": "辽宁省",
        "city": "沈阳市",
        "district": "皇姑区",
        "street": "",
        "street_number": "",
        "formatted_address": "北陵大街21号",
        "surround": "保利大都会,将军花园",
        "business_hour": "尚无营业时间",
        "level": "30",
        "source": "http://m.dianping.com/shop/4379348",
        "intro": "",
        "is_delete": "0",
        "create_time": "2015-07-09 17:01:38",
        "update_time": "2015-07-30 17:20:30"
      },
      {
        "id": "7755",
        "name": "凤周宠物医院",
        "seo_keywords": "凤周宠物医院,沈阳凤周宠物医院,沈阳宠物医院",
        "seo_description": "沈阳宠物医院凤周宠物医院是一家专为宠物诊疗的宠物医疗机构",
        "admin_id": "1",
        "update_admin_id": "5",
        "phone": "",
        "service_tag_ids": "9,190,189,192",
        "service_tags": "宠物医院,疫苗,体检,驱虫",
        "picture": "http://img.petshow.cc/pet_show/2015_07/4c6aeec828361f2c019dd4aa1efbcca7.jpg",
        "latitude": "41.79537186882178000",
        "longitude": "123.47973253071808000",
        "province": "辽宁省",
        "city": "沈阳市",
        "district": "大东区",
        "street": "",
        "street_number": "",
        "formatted_address": "大东路滂江街西侧",
        "surround": "盛京银行正浩支行,百果园水果超市",
        "business_hour": "尚无营业时间",
        "level": "30",
        "source": "http://m.dianping.com/shop/4379384",
        "intro": "",
        "is_delete": "0",
        "create_time": "2015-07-09 17:01:36",
        "update_time": "2015-07-30 17:51:48"
      },
      {
        "id": "7753",
        "name": "晟世天天动物医院",
        "seo_keywords": "晟世天天动物医院,沈阳晟世天天动物医院,沈阳宠物医院",
        "seo_description": "沈阳宠物医院晟世天天动物医院是一家专为宠物诊疗宠物诊疗机构",
        "admin_id": "1",
        "update_admin_id": "5",
        "phone": "",
        "service_tag_ids": "9,190,189,192",
        "service_tags": "宠物医院,疫苗,体检,驱虫",
        "picture": "http://img.petshow.cc/pet_show/2015_07/5db05ee8293ae25778205d9d318ba1d0.jpg",
        "latitude": "41.86512400000000000",
        "longitude": "123.38210900000000000",
        "province": "辽宁省",
        "city": "沈阳市",
        "district": "于洪区",
        "street": "",
        "street_number": "",
        "formatted_address": "白山路139号附近 ",
        "surround": "北陵家家乐超市二部,玫瑰园",
        "business_hour": "尚无营业时间",
        "level": "30",
        "source": "http://m.dianping.com/shop/14832119",
        "intro": "",
        "is_delete": "0",
        "create_time": "2015-07-09 17:01:36",
        "update_time": "2015-07-30 18:00:51"
      },
      {
        "id": "7752",
        "name": "怡合动物医院",
        "seo_keywords": "怡合动物医院,沈阳怡合动物医院,沈阳宠物医院",
        "seo_description": "沈阳宠物医院怡合动物医院，创建于2010年5月18日，医院设有接待室、诊室、手术室、X光室、化验室、输液区、药房、注射室、综合诊疗室以及住院部。",
        "admin_id": "1",
        "update_admin_id": "5",
        "phone": "02431338388",
        "service_tag_ids": "9,190,189,192,191,184,185,186",
        "service_tags": "宠物医院,疫苗,体检,驱虫,绝育,裁耳,断尾,断指",
        "picture": "http://img.petshow.cc/pet_show/2015_07/96480f15687ace4515a4a9cf531d5020.png",
        "latitude": "41.81326900000000000",
        "longitude": "123.39368000000000000",
        "province": "辽宁省",
        "city": "沈阳市",
        "district": "铁西区",
        "street": "",
        "street_number": "",
        "formatted_address": "兴工北街9号-9门",
        "surround": "三只熊火锅兴工店,乐和美服饰店",
        "business_hour": "尚无营业时间",
        "level": "30",
        "source": "http://m.dianping.com/shop/14090239",
        "intro": "沈阳市铁西区怡合动物医院，创建于2010年5月18日，医院设有接待室、诊室、手术室、X光室、化验室、输液区、药房、注射室、综合诊疗室以及住院部。",
        "is_delete": "0",
        "create_time": "2015-07-09 17:01:35",
        "update_time": "2015-07-31 15:45:05"
      },
      {
        "id": "7751",
        "name": "舒康宠物医院",
        "seo_keywords": "舒康宠物医院,沈阳舒康宠物医院,沈阳宠物医院",
        "seo_description": "沈阳宠物医院舒康宠物医院是一家专为宠物诊疗宠物医疗机构",
        "admin_id": "1",
        "update_admin_id": "5",
        "phone": "02423212991",
        "service_tag_ids": "9,190,189,192",
        "service_tags": "宠物医院,疫苗,体检,驱虫",
        "picture": "http://img.petshow.cc/pet_show/2015_07/ff626882ba3fecc79bd864c1579b6376.jpg",
        "latitude": "41.77062174862743000",
        "longitude": "123.39448590915445000",
        "province": "辽宁省",
        "city": "沈阳市",
        "district": "和平区",
        "street": "",
        "street_number": "",
        "formatted_address": "和平南大街77号",
        "surround": "富丽园酒店,舒心盲人按摩",
        "business_hour": "尚无营业时间",
        "level": "30",
        "source": "http://m.dianping.com/shop/4379434",
        "intro": "",
        "is_delete": "0",
        "create_time": "2015-07-09 17:01:35",
        "update_time": "2015-07-31 15:50:49"
      },
      {
        "id": "7744",
        "name": "兴旺宠物医院",
        "seo_keywords": "兴旺宠物医院,沈阳兴旺宠物医院,沈阳宠物医院",
        "seo_description": "沈阳宠物医院兴旺宠物医院是一家专为宠物诊疗的宠物医疗机构",
        "admin_id": "1",
        "update_admin_id": "5",
        "phone": "",
        "service_tag_ids": "9,190,189,192,191",
        "service_tags": "宠物医院,疫苗,体检,驱虫,绝育",
        "picture": "http://img.petshow.cc/pet_show/2015_07/aa8a7026fe0305165bc4cbee946a79dc.png",
        "latitude": "42.00624000000000000",
        "longitude": "122.83927200000000000",
        "province": "辽宁省",
        "city": "沈阳市",
        "district": "新民",
        "street": "",
        "street_number": "",
        "formatted_address": "市府路",
        "surround": "海洋铝塑门窗,福客旅店",
        "business_hour": "尚无营业时间",
        "level": "30",
        "source": "http://m.dianping.com/shop/14855065",
        "intro": "",
        "is_delete": "0",
        "create_time": "2015-07-09 17:01:33",
        "update_time": "2015-07-31 16:40:28"
      },
      {
        "id": "7743",
        "name": "万方动物医院",
        "seo_keywords": "万方动物医院,沈阳万方动物医院,沈阳宠物医院",
        "seo_description": "沈阳宠物医院万方动物医院是一家专为宠物诊疗的宠物医疗机构",
        "admin_id": "1",
        "update_admin_id": "5",
        "phone": "",
        "service_tag_ids": "9,190,189,192",
        "service_tags": "宠物医院,疫苗,体检,驱虫",
        "picture": "http://img.petshow.cc/pet_show/2015_07/35888a9754c8e11373f22cd48b0967e6.jpg",
        "latitude": "41.89698000000000000",
        "longitude": "123.44079800000000000",
        "province": "辽宁省",
        "city": "沈阳市",
        "district": "皇姑区",
        "street": "",
        "street_number": "",
        "formatted_address": "万山路42号",
        "surround": "佳境天成,车驿汽车美容保养中心",
        "business_hour": "尚无营业时间",
        "level": "30",
        "source": "http://m.dianping.com/shop/14841998",
        "intro": "",
        "is_delete": "0",
        "create_time": "2015-07-09 17:01:33",
        "update_time": "2015-07-31 16:43:53"
      },
      {
        "id": "7737",
        "name": "宠物门诊",
        "seo_keywords": "宠物门诊,沈阳宠物门诊,沈阳宠物医院,沈阳宠物诊所",
        "seo_description": "沈阳宠物医院宠物门诊是一家专为宠物诊疗的宠物医疗门诊",
        "admin_id": "1",
        "update_admin_id": "5",
        "phone": "13884846931",
        "service_tag_ids": "9,190,189,192",
        "service_tags": "宠物医院,疫苗,体检,驱虫",
        "picture": "http://img.petshow.cc/pet_show/2015_07/1f3b22bc1bd7268acda67cb498752c03.png",
        "latitude": "41.77906143559503000",
        "longitude": "123.35961824929326000",
        "province": "辽宁省",
        "city": "沈阳市",
        "district": "铁西区",
        "street": "",
        "street_number": "",
        "formatted_address": "沈辽东路61号",
        "surround": "沈阳旺角化工有限公司,众昊汽车租赁",
        "business_hour": "尚无营业时间",
        "level": "30",
        "source": "http://m.dianping.com/shop/14528420",
        "intro": "",
        "is_delete": "0",
        "create_time": "2015-07-09 17:01:31",
        "update_time": "2015-07-31 17:44:45"
      },
      {
        "id": "7734",
        "name": "农大爱心宠物医院 (凌云街店)",
        "seo_keywords": "农大爱心宠物医院 (凌云街店),沈阳农大爱心宠物医院 (凌云街店),沈阳宠物医院",
        "seo_description": "沈阳宠物医院农大爱心宠物医院 (凌云街店)是一家专为宠物诊疗的宠物医疗机构",
        "admin_id": "1",
        "update_admin_id": "5",
        "phone": "",
        "service_tag_ids": "9,190,189,192",
        "service_tags": "宠物医院,疫苗,体检,驱虫",
        "picture": "http://img.petshow.cc/pet_show/2015_07/a62946f7e6cf8721bacdfd457373bf61.jpg",
        "latitude": "41.79545245956448000",
        "longitude": "123.51248121503079000",
        "province": "辽宁省",
        "city": "沈阳市",
        "district": "大东区",
        "street": "",
        "street_number": "",
        "formatted_address": "凌云街",
        "surround": "沈阳市大华教学设备厂",
        "business_hour": "尚无营业时间",
        "level": "30",
        "source": "http://m.dianping.com/shop/4379306",
        "intro": "",
        "is_delete": "0",
        "create_time": "2015-07-09 17:01:29",
        "update_time": "2015-07-31 17:59:22"
      },
      {
        "id": "7732",
        "name": "香香宠物医院",
        "seo_keywords": "香香宠物医院,沈阳香香宠物医院,沈阳宠物医院",
        "seo_description": "沈阳宠物医院香香宠物医院是一家专为宠物诊疗的宠物医疗场所",
        "admin_id": "1",
        "update_admin_id": "5",
        "phone": "(024)82621314 ",
        "service_tag_ids": "9,190,189,192",
        "service_tags": "宠物医院,疫苗,体检,驱虫",
        "picture": "http://img.petshow.cc/pet_show/2015_08/796590667d3cc10e5ef8ba86b3f1f4fb.png",
        "latitude": "41.80037800000000000",
        "longitude": "123.33140200000000000",
        "province": "辽宁省",
        "city": "沈阳市",
        "district": "铁西区",
        "street": "",
        "street_number": "",
        "formatted_address": "南十西路53号",
        "surround": "国家电网郭家供电营业厅,鑫发通讯",
        "business_hour": "尚无营业时间",
        "level": "30",
        "source": "http://m.dianping.com/shop/14847116",
        "intro": "",
        "is_delete": "0",
        "create_time": "2015-07-09 17:01:29",
        "update_time": "2015-08-01 15:32:34"
      },
      {
        "id": "7726",
        "name": "云龙宠物医院",
        "seo_keywords": "云龙宠物医院,沈阳云龙宠物医院,沈阳宠物医院",
        "seo_description": "沈阳宠物医院云龙宠物医院是一家专为宠物诊疗的宠物医疗场所",
        "admin_id": "1",
        "update_admin_id": "5",
        "phone": "",
        "service_tag_ids": "9,190,189,192",
        "service_tags": "宠物医院,疫苗,体检,驱虫",
        "picture": "http://img.petshow.cc/pet_show/2015_08/f0a63e40cc3d6d8febb481c4d91f00d2.jpg",
        "latitude": "42.50571946910824000",
        "longitude": "123.41441223543357000",
        "province": "辽宁省",
        "city": "沈阳市",
        "district": "法库",
        "street": "",
        "street_number": "",
        "formatted_address": "法库红街2号",
        "surround": "盼盼门业,广东华夏理石餐桌行",
        "business_hour": "尚无营业时间",
        "level": "30",
        "source": "http://m.dianping.com/shop/14528981",
        "intro": "",
        "is_delete": "0",
        "create_time": "2015-07-09 17:01:23",
        "update_time": "2015-08-01 16:10:48"
      },
      {
        "id": "7724",
        "name": "贝爱康动物医院",
        "seo_keywords": "贝爱康动物医院,沈阳贝爱康动物医院,沈阳宠物医院",
        "seo_description": "沈阳宠物医院贝爱康动物医院是一家专为宠物诊疗的宠物医疗机构",
        "admin_id": "1",
        "update_admin_id": "5",
        "phone": "02424351038",
        "service_tag_ids": "9,190,189,192",
        "service_tags": "宠物医院,疫苗,体检,驱虫",
        "picture": "http://img.petshow.cc/pet_show/2015_08/4423c34f44758f4ae197852d92976b00.jpg",
        "latitude": "41.80224229676166000",
        "longitude": "123.46866990553528000",
        "province": "辽宁省",
        "city": "沈阳市",
        "district": "大东区",
        "street": "",
        "street_number": "",
        "formatted_address": "津桥路31甲",
        "surround": "锦龙大厦,鑫东升平价超市",
        "business_hour": "尚无营业时间",
        "level": "30",
        "source": "http://m.dianping.com/shop/14089372",
        "intro": "",
        "is_delete": "0",
        "create_time": "2015-07-09 17:01:16",
        "update_time": "2015-08-01 16:18:32"
      },
      {
        "id": "7722",
        "name": "维康宠物门诊",
        "seo_keywords": "维康宠物门诊,沈阳维康宠物门诊,沈阳宠物医院,沈阳宠物诊所",
        "seo_description": "沈阳宠物医院维康宠物门诊是一家专为宠物诊疗的宠物医疗机构",
        "admin_id": "1",
        "update_admin_id": "5",
        "phone": "",
        "service_tag_ids": "9,190,189,192,191,184,185,186",
        "service_tags": "宠物医院,疫苗,体检,驱虫,绝育,裁耳,断尾,断指",
        "picture": "http://img.petshow.cc/pet_show/2015_08/b5fa50c85001e9f8673934100d519e50.png",
        "latitude": "41.78849200000000000",
        "longitude": "123.34232900000000000",
        "province": "辽宁省",
        "city": "沈阳市",
        "district": "铁西区",
        "street": "",
        "street_number": "",
        "formatted_address": "勋业三路9号",
        "surround": "山西刀削面勋业三路,金来蛋糕",
        "business_hour": "尚无营业时间",
        "level": "30",
        "source": "http://m.dianping.com/shop/14843646",
        "intro": "",
        "is_delete": "0",
        "create_time": "2015-07-09 17:01:16",
        "update_time": "2015-08-01 16:30:12"
      },
      {
        "id": "7712",
        "name": "宠爱园宠物门诊",
        "seo_keywords": "宠爱园宠物门诊,沈阳宠爱园宠物门诊,沈阳宠物医院,沈阳宠物诊所",
        "seo_description": "沈阳宠物医院宠爱园宠物门诊是一家专为宠物诊疗的宠物医疗门诊",
        "admin_id": "1",
        "update_admin_id": "5",
        "phone": "13884846931 ",
        "service_tag_ids": "9,190,189,192,21,182,86",
        "service_tags": "宠物医院,疫苗,体检,驱虫,洗澡,剪毛,造型",
        "picture": "http://img.petshow.cc/pet_show/2015_08/a8ae92b188db6744895f2eb04b2d080b.png",
        "latitude": "41.78782000000000000",
        "longitude": "123.37220800000000000",
        "province": "辽宁省",
        "city": "沈阳市",
        "district": "铁西区",
        "street": "",
        "street_number": "",
        "formatted_address": "沈辽东路61",
        "surround": "沈阳旺角化工有限公司,东升工业用布厂",
        "business_hour": "尚无营业时间",
        "level": "30",
        "source": "http://m.dianping.com/shop/14767795",
        "intro": "",
        "is_delete": "0",
        "create_time": "2015-07-09 17:01:13",
        "update_time": "2015-08-01 17:39:43"
      },
      {
        "id": "7707",
        "name": "聚众鑫宠物医院",
        "seo_keywords": "聚众鑫宠物医院,沈阳聚众鑫宠物医院,沈阳宠物医院",
        "seo_description": "沈阳宠物医院聚众鑫宠物医院是一家专为宠物诊疗的宠物医疗机构",
        "admin_id": "1",
        "update_admin_id": "5",
        "phone": "15998372468",
        "service_tag_ids": "9,190,189,192",
        "service_tags": "宠物医院,疫苗,体检,驱虫",
        "picture": "http://img.petshow.cc/pet_show/2015_08/8e78d52c89b238e44c27fb1cbe169352.png",
        "latitude": "41.88993900000000000",
        "longitude": "123.36477800000000000",
        "province": "辽宁省",
        "city": "沈阳市",
        "district": "于洪区",
        "street": "",
        "street_number": "",
        "formatted_address": "西江北街，添伍兰庭小区对面 ",
        "surround": "海里捞欢乐火锅,双吉超市",
        "business_hour": "尚无营业时间",
        "level": "30",
        "source": "http://m.dianping.com/shop/14528281",
        "intro": "",
        "is_delete": "0",
        "create_time": "2015-07-09 17:01:11",
        "update_time": "2015-08-03 17:28:38"
      },
      {
        "id": "7705",
        "name": "晶迪宠物门诊",
        "seo_keywords": "晶迪宠物门诊,沈阳晶迪宠物门诊,沈阳宠物医院,沈阳宠物诊所",
        "seo_description": "沈阳宠物医院晶迪宠物门诊是一家专为宠物诊疗的从我医疗机构",
        "admin_id": "1",
        "update_admin_id": "5",
        "phone": "",
        "service_tag_ids": "9,190,189,192",
        "service_tags": "宠物医院,疫苗,体检,驱虫",
        "picture": "http://img.petshow.cc/pet_show/2015_08/a3e3976b2f677b58df6c449e5f98e0b1.png",
        "latitude": "41.78851200000000000",
        "longitude": "123.34224000000000000",
        "province": "辽宁省",
        "city": "沈阳市",
        "district": "铁西区",
        "street": "",
        "street_number": "",
        "formatted_address": "勋业三路9-12号附近",
        "surround": "金来蛋糕,山西刀削面勋业三路",
        "business_hour": "尚无营业时间",
        "level": "30",
        "source": "http://m.dianping.com/shop/14090285",
        "intro": "",
        "is_delete": "0",
        "create_time": "2015-07-09 17:01:11",
        "update_time": "2015-08-03 17:40:15"
      },
      {
        "id": "7704",
        "name": "56号宠物医院",
        "seo_keywords": "56号宠物医院,沈阳56号宠物医院,沈阳宠物医院",
        "seo_description": "沈阳宠物医院56号宠物医院是一家专为宠物诊疗的宠物医疗场所",
        "admin_id": "1",
        "update_admin_id": "5",
        "phone": "",
        "service_tag_ids": "9,190,189,192",
        "service_tags": "宠物医院,疫苗,体检,驱虫",
        "picture": "http://img.petshow.cc/pet_show/2015_08/22ff537ac52c2c30a8cc52c56c03b115.jpg",
        "latitude": "41.75058200000000000",
        "longitude": "123.26515800000000000",
        "province": "辽宁省",
        "city": "沈阳市",
        "district": "铁西区",
        "street": "",
        "street_number": "",
        "formatted_address": "沈辽路曹家小学附近 ",
        "surround": "曹家小学,晨阳超市",
        "business_hour": "尚无营业时间",
        "level": "30",
        "source": "http://m.dianping.com/shop/14754904",
        "intro": "",
        "is_delete": "0",
        "create_time": "2015-07-09 17:01:11",
        "update_time": "2015-08-03 17:44:15"
      },
      {
        "id": "7700",
        "name": "泰安宠物医院 (于洪分院)",
        "seo_keywords": "泰安宠物医院 (于洪分院),沈阳泰安宠物医院 (于洪分院),沈阳宠物医院",
        "seo_description": "沈阳宠物医院沈阳市泰安宠物医院是一家以猫科动物为主的综合性专业宠物医疗机构，为沈阳市狂犬病强制免疫店注射单位。",
        "admin_id": "1",
        "update_admin_id": "5",
        "phone": "02466799805",
        "service_tag_ids": "9,190,189,192,16,24,178,179",
        "service_tags": "宠物医院,疫苗,体检,驱虫,宠物用品,狗粮,零食,服装",
        "picture": "http://img.petshow.cc/pet_show/2015_08/26eed7d69a7b40201e772d8c3471d2ff.png",
        "latitude": "41.87210100000000000",
        "longitude": "123.38139800000000000",
        "province": "辽宁省",
        "city": "沈阳市",
        "district": "于洪区",
        "street": "",
        "street_number": "",
        "formatted_address": "松山西路（丁香水岸对面）",
        "surround": "丁香水岸对面",
        "business_hour": "早上8：00~晚上20：00",
        "level": "30",
        "source": "http://m.dianping.com/shop/23093113",
        "intro": "沈阳市泰安宠物医院是一家以猫科动物为主的综合性专业宠物医疗机构，为沈阳市狂犬病强制免疫店注射单位。",
        "is_delete": "0",
        "create_time": "2015-07-09 17:01:10",
        "update_time": "2015-08-03 18:12:27"
      },
      {
        "id": "7699",
        "name": "宠爱有家宠物诊所",
        "seo_keywords": "宠爱有家宠物诊所,沈阳宠爱有家宠物诊所,沈阳宠物医院,沈阳宠物诊所",
        "seo_description": "沈阳宠物医院宠爱有家宠物诊所是一家专为宠物诊疗的宠物医疗诊所",
        "admin_id": "1",
        "update_admin_id": "5",
        "phone": "24084080",
        "service_tag_ids": "9,190,189,192",
        "service_tags": "宠物医院,疫苗,体检,驱虫",
        "picture": "http://img.petshow.cc/pet_show/2015_08/3d5ca74b036aec34ad03094ad5606d1d.png",
        "latitude": "41.79858300000000000",
        "longitude": "123.47149400000000000",
        "province": "辽宁省",
        "city": "沈阳市",
        "district": "大东区",
        "street": "",
        "street_number": "",
        "formatted_address": "东顺城街育才巷1号",
        "surround": "龙发艺,顺城大冷面",
        "business_hour": "尚无营业时间",
        "level": "30",
        "source": "http://m.dianping.com/shop/22939156",
        "intro": "",
        "is_delete": "0",
        "create_time": "2015-07-09 17:01:09",
        "update_time": "2015-08-03 18:18:46"
      },
      {
        "id": "7697",
        "name": "旺旺宠物医院",
        "seo_keywords": "旺旺宠物医院,沈阳旺旺宠物医院,沈阳宠物医院",
        "seo_description": "沈阳宠物医院旺旺宠物医院是一家专为宠物诊疗的宠物医疗场所",
        "admin_id": "1",
        "update_admin_id": "5",
        "phone": "02462523886",
        "service_tag_ids": "9,190,189,192,21",
        "service_tags": "宠物医院,疫苗,体检,驱虫,洗澡",
        "picture": "http://img.petshow.cc/pet_show/2015_08/df405839bee526e156a084cd17376da2.png",
        "latitude": "41.80043200000000000",
        "longitude": "123.33275300000000000",
        "province": "辽宁省",
        "city": "沈阳市",
        "district": "铁西区",
        "street": "",
        "street_number": "",
        "formatted_address": "南十西路旁",
        "surround": "町田寿司,永辉超市",
        "business_hour": "尚无营业时间",
        "level": "30",
        "source": "http://m.dianping.com/shop/4379334",
        "intro": "",
        "is_delete": "0",
        "create_time": "2015-07-09 17:01:08",
        "update_time": "2015-08-03 18:22:30"
      },
      {
        "id": "7692",
        "name": "康处宠物医院",
        "seo_keywords": "康处宠物医院,沈阳康处宠物医院,沈阳宠物医院",
        "seo_description": "沈阳宠物医院康处宠物医院是一家专为宠物诊疗的宠物医疗机构",
        "admin_id": "1",
        "update_admin_id": "5",
        "phone": "02423526230",
        "service_tag_ids": "9,190,189,192",
        "service_tags": "宠物医院,疫苗,体检,驱虫",
        "picture": "http://img.petshow.cc/pet_show/2015_08/a421d5c6356d58c26276d23cc6c135ad.jpg",
        "latitude": "41.77168768839178600",
        "longitude": "123.39447676319090000",
        "province": "辽宁省",
        "city": "沈阳市",
        "district": "和平区",
        "street": "",
        "street_number": "",
        "formatted_address": "和平南大街70号",
        "surround": "沈阳市和平区妇婴医院东院区,新天地超市集贤店",
        "business_hour": "尚无营业时间",
        "level": "30",
        "source": "http://m.dianping.com/shop/4379366",
        "intro": "",
        "is_delete": "0",
        "create_time": "2015-07-09 17:01:04",
        "update_time": "2015-08-03 18:42:15"
      },
      {
        "id": "7689",
        "name": "小动物医院 (东北大马路分院)",
        "seo_keywords": "小动物医院 (东北大马路分院),沈阳小动物医院 (东北大马路分院),沈阳宠物医院",
        "seo_description": "沈阳宠物医院小动物医院 (东北大马路分院)是一家专为宠物诊疗宠物医疗机构",
        "admin_id": "1",
        "update_admin_id": "5",
        "phone": "02488906837",
        "service_tag_ids": "9,190,189,192",
        "service_tags": "宠物医院,疫苗,体检,驱虫",
        "picture": "http://img.petshow.cc/pet_show/2015_08/870938fc8060845feab97e8f8d69117b.png",
        "latitude": "41.83070000000000000",
        "longitude": "123.49851800000000000",
        "province": "辽宁省",
        "city": "沈阳市",
        "district": "大东区",
        "street": "",
        "street_number": "",
        "formatted_address": "东北大马路157号",
        "surround": "东站营业厅通讯,铭鑫缘床上用品",
        "business_hour": "尚无营业时间",
        "level": "30",
        "source": "http://m.dianping.com/shop/4379339",
        "intro": "",
        "is_delete": "0",
        "create_time": "2015-07-09 17:01:03",
        "update_time": "2015-08-04 17:06:35"
      },
      {
        "id": "7688",
        "name": "高级宠物医院 (南十西路店)",
        "seo_keywords": "高级宠物医院 (南十西路店),沈阳高级宠物医院 (南十西路店),沈阳宠物医院",
        "seo_description": "沈阳宠物医院高级宠物医院 (南十西路店)是一家专为宠物诊疗的宠物医疗机构",
        "admin_id": "1",
        "update_admin_id": "5",
        "phone": "",
        "service_tag_ids": "9,190,189,192",
        "service_tags": "宠物医院,疫苗,体检,驱虫",
        "picture": "http://img.petshow.cc/pet_show/2015_08/0e0f1ccc76ca759e5250cb5f86d5018e.jpg",
        "latitude": "41.79165781923362000",
        "longitude": "123.32753650759558000",
        "province": "辽宁省",
        "city": "沈阳市",
        "district": "铁西区",
        "street": "",
        "street_number": "",
        "formatted_address": "南十西路27号",
        "surround": "宏兴渔具店,严明永嘉口腔门诊部",
        "business_hour": "尚无营业时间",
        "level": "30",
        "source": "http://m.dianping.com/shop/4379352",
        "intro": "",
        "is_delete": "0",
        "create_time": "2015-07-09 17:01:02",
        "update_time": "2015-08-04 17:09:11"
      },
      {
        "id": "7685",
        "name": "阳光宠物医院",
        "seo_keywords": "阳光宠物医院,沈阳阳光宠物医院,沈阳宠物医院",
        "seo_description": "沈阳宠物医院阳光宠物医院是一家专为宠物诊疗的宠物医疗场所",
        "admin_id": "1",
        "update_admin_id": "5",
        "phone": "02482123608",
        "service_tag_ids": "9,190,189,192",
        "service_tags": "宠物医院,疫苗,体检,驱虫",
        "picture": "http://img.petshow.cc/pet_show/2015_08/332ca88a55f7f7b24d3c329ef5176843.jpg",
        "latitude": "41.77091151191123000",
        "longitude": "123.34000465335845000",
        "province": "辽宁省",
        "city": "沈阳市",
        "district": "铁西区",
        "street": "",
        "street_number": "",
        "formatted_address": "红粉路35号2门",
        "surround": "四季香饺子馆,佐客连锁便利店",
        "business_hour": "尚无营业时间",
        "level": "30",
        "source": "http://m.dianping.com/shop/4379344",
        "intro": "",
        "is_delete": "0",
        "create_time": "2015-07-09 17:01:00",
        "update_time": "2015-08-04 17:23:40"
      },
      {
        "id": "7683",
        "name": "贵和宠物诊所",
        "seo_keywords": "贵和宠物诊所,沈阳贵和宠物诊所,沈阳宠物医院,沈阳宠物诊所",
        "seo_description": "沈阳宠物医院贵和宠物诊所是一家专为宠物诊疗的宠物医疗诊所",
        "admin_id": "1",
        "update_admin_id": "5",
        "phone": "02425607806",
        "service_tag_ids": "9,190,189,192",
        "service_tags": "宠物医院,疫苗,体检,驱虫",
        "picture": "http://img.petshow.cc/pet_show/2015_08/d5cafb03027e139ebcdc3fa1273f6adf.png",
        "latitude": "41.79932200000000000",
        "longitude": "123.37069600000000000",
        "province": "辽宁省",
        "city": "沈阳市",
        "district": "铁西区",
        "street": "",
        "street_number": "",
        "formatted_address": "勋望街15号附近",
        "surround": "金鼎海鲜烧烤,新向阳超市",
        "business_hour": "尚无营业时间",
        "level": "30",
        "source": "http://m.dianping.com/shop/14090280",
        "intro": "",
        "is_delete": "0",
        "create_time": "2015-07-09 17:01:00",
        "update_time": "2015-08-04 17:29:36"
      },
      {
        "id": "7680",
        "name": "南市宠物医院",
        "seo_keywords": "南市宠物医院,沈阳南市宠物医院,沈阳宠物医院",
        "seo_description": "沈阳宠物医院南市宠物医院是一家专为宠物诊疗的宠物医疗场所",
        "admin_id": "1",
        "update_admin_id": "5",
        "phone": "",
        "service_tag_ids": "9,190,189,192",
        "service_tags": "宠物医院,疫苗,体检,驱虫",
        "picture": "http://img.petshow.cc/pet_show/2015_08/22b7159962d334fef53851cdd6a181a4.jpg",
        "latitude": "41.78524001099806000",
        "longitude": "123.41155925653979000",
        "province": "辽宁省",
        "city": "沈阳市",
        "district": "和平区",
        "street": "",
        "street_number": "",
        "formatted_address": "南六经街5号",
        "surround": "刘汉西医内科诊所,中通速递",
        "business_hour": "尚无营业时间",
        "level": "30",
        "source": "http://m.dianping.com/shop/4379346",
        "intro": "",
        "is_delete": "0",
        "create_time": "2015-07-09 17:00:58",
        "update_time": "2015-08-04 17:47:50"
      },
      {
        "id": "7679",
        "name": "欣欣维康宠物医院",
        "seo_keywords": "欣欣维康宠物医院,沈阳欣欣维康宠物医院,沈阳宠物医院",
        "seo_description": "沈阳宠物医院",
        "admin_id": "1",
        "update_admin_id": "5",
        "phone": "",
        "service_tag_ids": "9,190,189,192,191,184,185,186",
        "service_tags": "宠物医院,疫苗,体检,驱虫,绝育,裁耳,断尾,断指",
        "picture": "http://img.petshow.cc/pet_show/2015_08/a289932f38e7b396ae57feeedcfa0526.png",
        "latitude": "41.78848500000000000",
        "longitude": "123.34230300000000000",
        "province": "辽宁省",
        "city": "沈阳市",
        "district": "铁西区",
        "street": "",
        "street_number": "",
        "formatted_address": "勋业三路9-11号附近",
        "surround": "山西刀削面勋业三路,金来蛋糕",
        "business_hour": "尚无营业时间",
        "level": "30",
        "source": "http://m.dianping.com/shop/14090284",
        "intro": "",
        "is_delete": "0",
        "create_time": "2015-07-09 17:00:58",
        "update_time": "2015-08-04 17:52:24"
      },
      {
        "id": "7678",
        "name": "东亚宠物医院",
        "seo_keywords": "东亚宠物医院,沈阳东亚宠物医院,沈阳宠物医院",
        "seo_description": "沈阳宠物医院东亚宠物医院是一家专为宠物诊疗的宠物医疗机构",
        "admin_id": "1",
        "update_admin_id": "5",
        "phone": "02423264313",
        "service_tag_ids": "9,190,189,192",
        "service_tags": "宠物医院,疫苗,体检,驱虫",
        "picture": "http://img.petshow.cc/pet_show/2015_08/5942f3633c94e1f2cd68a70909281eb3.jpg",
        "latitude": "41.78937872002376000",
        "longitude": "123.40799331076799000",
        "province": "辽宁省",
        "city": "沈阳市",
        "district": "和平区",
        "street": "",
        "street_number": "",
        "formatted_address": "和平北大街108号",
        "surround": "中国电信和平北大街营业厅,顶点画室",
        "business_hour": "尚无营业时间",
        "level": "30",
        "source": "http://m.dianping.com/shop/4379337",
        "intro": "",
        "is_delete": "0",
        "create_time": "2015-07-09 17:00:57",
        "update_time": "2015-08-04 17:55:10"
      },
      {
        "id": "7677",
        "name": "欢欢宠物医院",
        "seo_keywords": "欢欢宠物医院,沈阳欢欢宠物医院,沈阳宠物医院",
        "seo_description": "沈阳宠物医院欢欢宠物医院是一家专为宠物诊疗的宠物医疗场所",
        "admin_id": "1",
        "update_admin_id": "5",
        "phone": "13940511537 ",
        "service_tag_ids": "9,190,189,192,191,184,185,186",
        "service_tags": "宠物医院,疫苗,体检,驱虫,绝育,裁耳,断尾,断指",
        "picture": "http://img.petshow.cc/pet_show/2015_08/f98a187e24f1b92651a983689b25bbb8.png",
        "latitude": "41.80907500000000000",
        "longitude": "123.33472600000000000",
        "province": "辽宁省",
        "city": "沈阳市",
        "district": "铁西区",
        "street": "",
        "street_number": "",
        "formatted_address": "南六西路",
        "surround": "口福居火锅,添赢运输有限公司",
        "business_hour": "尚无营业时间",
        "level": "30",
        "source": "http://m.dianping.com/shop/14793641",
        "intro": "",
        "is_delete": "0",
        "create_time": "2015-07-09 17:00:56",
        "update_time": "2015-08-04 17:59:05"
      },
      {
        "id": "7672",
        "name": "滑翔爱心宠物诊所",
        "seo_keywords": "滑翔爱心宠物诊所,沈阳滑翔爱心宠物诊所,沈阳宠物医院,沈阳宠物诊所",
        "seo_description": "滑翔爱心宠物诊所滑翔爱心宠物诊所是一家专为宠物诊疗的宠物医疗诊所",
        "admin_id": "1",
        "update_admin_id": "5",
        "phone": "02425968659",
        "service_tag_ids": "9,190,189,192",
        "service_tags": "宠物医院,疫苗,体检,驱虫",
        "picture": "http://img.petshow.cc/pet_show/2015_08/3af171446d7199982ade744da023c48f.png",
        "latitude": "41.77986600000000000",
        "longitude": "123.38589600000000000",
        "province": "辽宁省",
        "city": "沈阳市",
        "district": "铁西区",
        "street": "",
        "street_number": "",
        "formatted_address": "凌空一街51-2号3门",
        "surround": "鑫宝龙汽车装饰美容中心,宏达驾校凌空一街",
        "business_hour": "尚无营业时间",
        "level": "30",
        "source": "http://m.dianping.com/shop/14089501",
        "intro": "",
        "is_delete": "0",
        "create_time": "2015-07-09 17:00:54",
        "update_time": "2015-08-04 18:16:06"
      }
    ],
    "page_data": {
      "page": 1,
      "page_total": 36,
      "data_total": 1770,
      "limit": "LIMIT 0, 50",
      "page_html": ""
    }
  }
}
