{
  "code": 100,
  "msg": "成功",
  "data": {
    "list": [
      {
        "id": "6906",
        "name": "潮流新宠宠物店",
        "seo_keywords": "潮流新宠宠物店,成都市潮流新宠宠物店,成都市潮流新宠宠物店店铺",
        "seo_description": "成都市潮流新宠宠物店店铺",
        "admin_id": "1",
        "update_admin_id": "8",
        "phone": "15828285797",
        "service_tag_ids": "17,16,1",
        "service_tags": "宠物店,宠物用品,店铺",
        "picture": "http://img.petshow.cc/pet_show/2015_11/f9ff797fc1cdaca895f7e725d41cb9c7.jpg",
        "latitude": "30.54000698403565000",
        "longitude": "104.24888070214627000",
        "province": "四川省",
        "city": "成都市",
        "district": "金牛区",
        "street": "",
        "street_number": "",
        "formatted_address": "东山国际H区一栋附4号",
        "surround": "体育馆旁,兴业银行内侧",
        "business_hour": "09:00-21:00",
        "level": "30",
        "source": "http://m.dianping.com/shop/23954606",
        "intro": "",
        "is_delete": "0",
        "create_time": "2015-07-06 10:02:55",
        "update_time": "2015-07-29 11:04:59"
      },
      {
        "id": "6903",
        "name": "宠爱有家",
        "seo_keywords": "宠爱有家,成都市宠爱有,成都市家宠爱有家店铺",
        "seo_description": "宠爱有家是成都市彭州地区的宠物相关店铺",
        "admin_id": "1",
        "update_admin_id": "8",
        "phone": "02883463049",
        "service_tag_ids": "17,16,1",
        "service_tags": "宠物店,宠物用品,店铺",
        "picture": "http://img.petshow.cc/pet_show/2015_11/28479f8bbd23bf40462c2b94e4e089db.jpg",
        "latitude": "30.99202000000000000",
        "longitude": "103.96726800000000000",
        "province": "四川省",
        "city": "成都市",
        "district": "彭州市",
        "street": "",
        "street_number": "",
        "formatted_address": "金彭东路112号",
        "surround": "置信·逸都城购物中心东南",
        "business_hour": "尚无营业时间",
        "level": "30",
        "source": "http://m.dianping.com/shop/11411280",
        "intro": "",
        "is_delete": "0",
        "create_time": "2015-07-06 10:02:55",
        "update_time": "2015-07-29 11:04:59"
      },
      {
        "id": "6850",
        "name": "挚友宠物超市",
        "seo_keywords": "挚友宠物超市,成都市挚友宠物超市,成都市挚友宠物超市店铺",
        "seo_description": "成都市青羊区青羊横街1号附4号挚友宠物超市店铺",
        "admin_id": "1",
        "update_admin_id": "8",
        "phone": "",
        "service_tag_ids": "17,16,1",
        "service_tags": "宠物店,宠物用品,店铺",
        "picture": "http://img.petshow.cc/pet_show/2015_10/4f4c8d5bf69d2fd9e37e5123fd3f191c.jpg",
        "latitude": "30.66408600000000000",
        "longitude": "104.04585000000000000",
        "province": "四川省",
        "city": "成都市",
        "district": "青羊区",
        "street": "青羊横街",
        "street_number": "青羊横街1号附4号",
        "formatted_address": "青羊横街1号附4号",
        "surround": "",
        "business_hour": "尚无营业时间",
        "level": "30",
        "source": "http://m.dianping.com/shop/11497924",
        "intro": "成都市青羊区青羊横街1号附4号挚友宠物超市",
        "is_delete": "0",
        "create_time": "2015-07-06 10:02:54",
        "update_time": "2015-09-04 23:36:50"
      },
      {
        "id": "6774",
        "name": "比瑞吉俱乐部成犬粮",
        "seo_keywords": "比瑞吉俱乐部成犬粮,成都市比瑞吉俱乐部成犬粮,成都市比瑞吉俱乐部成犬粮店铺",
        "seo_description": "成都市锦江区红星路二段70号比瑞吉俱乐部成犬粮店铺",
        "admin_id": "1",
        "update_admin_id": "8",
        "phone": "18628081782",
        "service_tag_ids": "17,24,1",
        "service_tags": "宠物店,狗粮,店铺",
        "picture": "http://img.petshow.cc/pet_show/2015_06/d5144f9fc569c7e0c978c5bca297bca5a2fae2cdfbe54e41d28a961d7206ee1a.png",
        "latitude": "30.66131658104889700",
        "longitude": "104.07985983505510000",
        "province": "四川省",
        "city": "成都市",
        "district": "锦江区",
        "street": "红星路二段70号",
        "street_number": "红星路二段70号",
        "formatted_address": "红星路二段70号布后街川报星光商务楼",
        "surround": "四川日报,华西都市报",
        "business_hour": "24小时",
        "level": "30",
        "source": "http://m.dianping.com/shop/19317099",
        "intro": "成都市锦江区红星路二段70号比瑞吉俱乐部成犬粮",
        "is_delete": "0",
        "create_time": "2015-07-06 10:02:52",
        "update_time": "2015-08-24 17:59:12"
      },
      {
        "id": "6706",
        "name": "红果宠物",
        "seo_keywords": "红果宠物,成都市红果宠物,成都市红果宠物店铺",
        "seo_description": "成都市温江区光华大道三段160号红果宠物店铺",
        "admin_id": "1",
        "update_admin_id": "8",
        "phone": "15928002760",
        "service_tag_ids": "17,16,1",
        "service_tags": "宠物店,宠物用品,店铺",
        "picture": "http://img.petshow.cc/pet_show/2015_10/52229fff4378455003d4048e816ccfe0.jpg",
        "latitude": "30.68405000000000000",
        "longitude": "103.89883300000000000",
        "province": "四川省",
        "city": "成都市",
        "district": "温江区",
        "street": "光华大道三段",
        "street_number": "光华大道三段160号",
        "formatted_address": "光华大道三段160号",
        "surround": "万科朗润园",
        "business_hour": "每天 08:30 - 20:00",
        "level": "30",
        "source": "http://m.dianping.com/shop/17792423",
        "intro": "成都市温江区光华大道三段160号红果宠物",
        "is_delete": "0",
        "create_time": "2015-07-06 10:02:51",
        "update_time": "2015-08-19 17:48:15"
      },
      {
        "id": "6502",
        "name": "猫狗吧宠物用品店",
        "seo_keywords": "猫狗吧宠物用品店,成都市猫狗吧宠物用品店,成都市猫狗吧宠物用品店店铺",
        "seo_description": "成都市金牛区蜀跃东路163号猫狗吧宠物用品店店铺",
        "admin_id": "1",
        "update_admin_id": "8",
        "phone": "",
        "service_tag_ids": "17,16,1",
        "service_tags": "宠物店,宠物用品,店铺",
        "picture": "http://img.petshow.cc/pet_show/2015_07/ac0f3224d47499a5b82ea9135640b0cd.jpg",
        "latitude": "30.70229452931820200",
        "longitude": "104.00454630913657000",
        "province": "四川省",
        "city": "成都市",
        "district": "金牛区",
        "street": "蜀跃东路",
        "street_number": "蜀跃东路163号",
        "formatted_address": "蜀跃东路163号",
        "surround": "",
        "business_hour": "尚无营业时间",
        "level": "30",
        "source": "http://m.dianping.com/shop/18029962",
        "intro": "成都市金牛区蜀跃东路163号猫狗吧宠物用品店",
        "is_delete": "0",
        "create_time": "2015-07-06 10:02:47",
        "update_time": "2015-07-30 17:38:52"
      },
      {
        "id": "6494",
        "name": "嘉缘用品批发",
        "seo_keywords": "嘉缘用品批发,成都市嘉缘用品批发,成都市嘉缘用品批发店铺",
        "seo_description": "成都市武侯区永康路嘉缘用品批发店铺",
        "admin_id": "1",
        "update_admin_id": "8",
        "phone": "18982037445",
        "service_tag_ids": "17,16,1",
        "service_tags": "宠物店,宠物用品,店铺",
        "picture": "http://img.petshow.cc/pet_show/2015_07/1ba0814776996c424bb23da5572ab759.jpg",
        "latitude": "30.65024600000000000",
        "longitude": "103.98180200000000000",
        "province": "四川省",
        "city": "成都市",
        "district": "武侯区",
        "street": "永康路",
        "street_number": "永康路",
        "formatted_address": "永康路",
        "surround": "永康路,馨康牙科",
        "business_hour": "尚无营业时间",
        "level": "30",
        "source": "http://m.dianping.com/shop/14546777",
        "intro": "成都市武侯区永康路嘉缘用品批发",
        "is_delete": "0",
        "create_time": "2015-07-06 10:02:47",
        "update_time": "2015-07-29 18:07:44"
      }
    ],
    "page_data": {
      "page": 1,
      "page_total": 5,
      "data_total": 218,
      "limit": "LIMIT 0, 50",
      "page_html": ""
    }
  }
}
